general:
  name: 校区
  content:
    - latitude: 43.82738
      longitude: 125.4274
      name: 净月校区
      detail: 中国吉林省长春市南关区净月大街 2555 号
      path: index

gate:
  name: 校门
  content:
    - latitude: 43.82853
      longitude: 125.43107
      name: 一号门
      detail: 净月校区一号门
      path: gate1

    - latitude: 43.829067
      longitude: 125.427172
      name: 二号门
      detail: 净月校区二号门
      path: gate2

    - latitude: 43.827783
      longitude: 125.423829
      name: 三号门
      detail: 净月校区三号门
      path: gate3

    - latitude: 43.826572
      longitude: 125.420067
      name: 四号门
      detail: 净月校区四号门
      path: gate4

    - latitude: 43.824837
      longitude: 125.417776
      name: 五号门
      detail: 净月校区五号门
      path: gate5

    - latitude: 43.823548
      longitude: 125.420658
      name: 六号门
      detail: 净月校区六号门
      path: gate6

dorm:
  name: 寝室
  content:
    - latitude: 43.824705
      longitude: 125.421396
      name: 春华公寓
      detail: 春华公寓
      path: spring

    - latitude: 43.825123
      longitude: 125.422941
      name: 夏华公寓
      detail: 夏华公寓
      path: summer

    - latitude: 43.824953
      longitude: 125.423887
      name: 秋华公寓
      detail: 秋华公寓
      path: fall

    - latitude: 43.824615
      longitude: 125.425693
      name: 冬华公寓
      detail: 冬华公寓
      path: winter

    - latitude: 43.826905
      longitude: 125.422825
      name: 日华公寓
      detail: 日华公寓
      path: sun

    - latitude: 43.826839
      longitude: 125.421734
      name: 月华公寓
      detail: 月华公寓
      path: moon

    - latitude: 43.825953
      longitude: 125.422882
      name: 星华公寓
      detail: 星华公寓
      path: star

    - latitude: 43.82554
      longitude: 125.421097
      name: 光华公寓
      detail: 光华公寓
      path: light

    - latitude: 43.825426
      longitude: 125.434102
      name: 天华公寓
      detail: 天华公寓

    - latitude: 43.825307
      longitude: 125.433375
      name: 地华公寓
      detail: 地华公寓

    - latitude: 43.825804
      longitude: 125.433429
      name: 人华公寓
      detail: 人华公寓

school:
  name: 学院
  content:
    - latitude: 43.827634
      longitude: 125.427246
      name: 经济与管理学院
      detail: 东北师范大学经济与管理学院
      path: economy

    - latitude: 43.825095
      longitude: 125.426731
      name: 环境学院
      detail: 东北师范大学环境学院
      path: environment

    - latitude: 43.827099
      longitude: 125.42591
      name: 政法学院
      detail: 东北师范大学政法学院
      path: politics

    - latitude: 43.82637
      longitude: 125.42704
      name: 传媒科学学院
      detail: 东北师范大学传媒科学学院
      path: media

    - latitude: 43.826677
      longitude: 125.429272
      name: 音乐学院
      detail: 东北师范大学音乐学院
      path: music

    - latitude: 43.826259
      longitude: 125.425503
      name: 外国语学院
      detail: 净月校区外国语学院
      path: foreign

    - latitude: 43.82571
      longitude: 125.428207
      name: 美术学院油画系
      detail: 东北师范大学美术学院油画系
      path: art

    - latitude: 43.825349
      longitude: 125.429667
      name: 美术学院雕塑系
      detail: 东北师范大学美术学院雕塑系
      path: art

    - latitude: 43.825219
      longitude: 125.429004
      name: 美术学院服装教学楼
      detail: 东北师范大学美术学院服装教学楼
      path: art

    - latitude: 43.825714
      longitude: 125.426986
      name: 信息科学与技术学院
      detail: 东北师范大学信息科学与技术学院
      path: ist

    - latitude: 43.827559
      longitude: 125.42446
      name: 国际汉学院
      detail: 东北师范大学国际汉学院
      path: international

    - latitude: 43.8279558644
      longitude: 125.4254311323
      name: 留学生预备学校
      detail: 东北师范大学净月校区留学生预备学校

    - latitude: 43.826361
      longitude: 125.420485
      name: 外国留学生预科部
      detail: 东北师范大学净月校区外国留学生预科部

building:
  name: 建筑
  content:
    - latitude: 43.826122
      longitude: 125.42412
      name: 图书馆
      detail: 净月校区图书馆
      path: library

    - latitude: 43.828469
      longitude: 125.426686
      name: 行政楼
      detail: 东北师范大学行政楼

    - latitude: 43.824796
      longitude: 125.426192
      name: 综合教学楼
      detail: 净月校区综合教学楼
      # path: complex

    - latitude: 43.825746
      longitude: 125.424458
      name: 保卫处
      detail: 净月校区保卫处
      # path: defend

    - latitude: 43.824582
      longitude: 125.42572
      name: 信息化办
      detail: 净月校区信息管理与规划办公室

    - latitude: 43.825456
      longitude: 125.427069
      name: 量子科学中心
      detail: 东北师范大学量子科学中心

    - latitude: 43.825582
      longitude: 125.418001
      name: 辐射技术研究所
      detail: 东北师范大学辐射技术研究所

    - latitude: 43.824258
      longitude: 125.427163
      name: 药物基因和蛋白筛选国家工程实验室
      detail: 东北师范大学药物基因和蛋白筛选国家工程实验室

    - latitude: 43.824792
      longitude: 125.41865
      name: 东北师范大学出版社
      detail: 东北师范大学出版社

facility:
  name: 设施
  content:
    - latitude: 43.82704
      longitude: 125.42385
      name: 一食堂
      detail: 净月校区一食堂
      path: dining1

    - latitude: 43.825301
      longitude: 125.424682
      name: 二食堂
      detail: 净月校区二食堂
      path: dining2

    - latitude: 43.826294
      longitude: 125.420678
      name: 浴池
      detail: 净月校区浴池
      path: bath

    - latitude: 43.825692
      longitude: 125.424139
      name: 卫生所
      detail: 净月校区卫生所
      path: hospital

    - latitude: 43.824961
      longitude: 125.424726
      name: 快递中心
      detail: 快递中心
      path: express

    - latitude: 43.825197
      longitude: 125.425045
      name: 超市
      detail: 超市
      path: shop

    - latitude: 43.82737
      longitude: 125.423382
      name: ATM
      detail: ATM
      path: atm

    - latitude: 43.828808
      longitude: 125.427627
      name: 校车候车室
      detail: 净月校车候车室

scenery:
  name: 风景
  content:
    - latitude: 43.827651
      longitude: 125.428654
      name: 旭日广场
      detail: 净月校区旭日广场

    - latitude: 43.827693
      longitude: 125.427386
      name: 钟楼
      detail: 净月校区钟楼

    - latitude: 43.827571
      longitude: 125.425648
      name: 樱花林
      detail: 净月校区中日友好樱花林

    - latitude: 43.828088
      longitude: 125.429873
      name: 紫光桥
      detail: 净月校区紫光桥

    - latitude: 43.826892
      longitude: 125.426414
      name: 喷泉
      detail: 净月校区喷泉

    - latitude: 43.826993
      longitude: 125.42667
      name: 鱼池
      detail: 净月校区鱼池

    - latitude: 43.826917
      longitude: 125.425969
      name: 郑德荣雕像
      detail: 净月校区郑德荣雕像

store:
  name: 店铺
  content:
    - latitude: 43.825096
      longitude: 125.424736
      name: 瑞幸咖啡
      detail: 二食堂菜鸟驿站旁

    - latitude: 43.825081
      longitude: 125.424734
      name: 库迪咖啡
      detail: 二食堂一楼东南侧

    - latitude: 43.825095
      longitude: 125.424778
      name: 樂读书庄
      detail: 二食堂一楼东南侧

    - latitude: 43.825233
      longitude: 125.425021
      name: 酷乐冰城
      detail: 二食堂超市对面

    - latitude: 43.825215
      longitude: 125.424984
      name: 甜啦啦
      detail: 二食堂书店内

    - latitude: 43.82519
      longitude: 125.424899
      name: 学子图文复印店
      detail: 二食堂超市对面

    - latitude: 43.825162
      longitude: 125.424811
      name: 晨光文具
      detail: 二食堂超市对面

    - latitude: 43.825145
      longitude: 125.424724
      name: 宏城烘焙坊
      detail: 二食堂一楼

    - latitude: 43.825145
      longitude: 125.424724
      name: 运福铺子 (干果店)
      detail: 二食堂一楼

    - latitude: 43.825187
      longitude: 125.424836
      name: 中国移动 品胜电子产品维修
      detail: 二食堂一楼

    - latitude: 43.825213
      longitude: 125.424919
      name: 新起点百货
      detail: 二食堂一楼

    - latitude: 43.825236
      longitude: 125.424988
      name: 正大茄子饭
      detail: 二食堂一楼

    - latitude: 43.825252
      longitude: 125.425045
      name: 缤果屋
      detail: 二食堂一楼 (超市入口附近)

    - latitude: 43.825315
      longitude: 125.425077
      name: 秀发型
      detail: 二食堂超市入口对面

    - latitude: 43.825284
      longitude: 125.425104
      name: 米多の店
      detail: 二食堂超市入口对面

    - latitude: 43.827024
      longitude: 125.423912
      name: 竖正茶饮
      detail: 一食堂一楼

    - latitude: 43.826849
      longitude: 125.423778
      name: 鲜榨果汁
      detail: 一食堂二楼

    - latitude: 43.825531
      longitude: 125.424621
      name: 菓碰茶
      detail: 二食堂三楼西北侧

    - latitude: 43.826196
      longitude: 125.421112
      name: 季康大药房
      detail: 学生浴池正门右侧

    - latitude: 43.826136
      longitude: 125.420682
      name: 天猫校园鲜果小铺
      detail: 浴池正门左侧

    - latitude: 43.825084
      longitude: 125.42468
      name: 平价水果超市
      detail: 二食堂二楼基本餐楼层

    - latitude: 43.827058
      longitude: 125.42359
      name: Sandwich
      detail: 一食堂二楼售餐亭

    - latitude: 43.826169
      longitude: 125.420948
      name: DL 发型设计
      detail: 学生浴池正门右侧

    - latitude: 43.826056
      longitude: 125.420767
      name: 云印社

    - latitude: 43.826169
      longitude: 125.421143
      name: 糖果洗衣
      detail: 浴池后侧

sports:
  name: 运动场地
  content:
    - latitude: 43.824997
      longitude: 125.420472
      name: 田径场
      detail: 净月校区田径场

    - latitude: 43.8241
      longitude: 125.421789
      name: 足球场
      detail: 净月校区足球场

    - latitude: 43.823928
      longitude: 125.422647
      name: 篮球场
      detail: 净月校区篮球场

    - latitude: 43.824501
      longitude: 125.424648
      name: 网球场
      detail: 净月校区网球场

    - latitude: 43.823919306
      longitude: 125.4245567322
      name: 排球场
      detail: 净月校区排球场

    - latitude: 43.82441
      longitude: 125.419355
      name: 羽毛球场
      detail: 净月校区羽毛球场

    - latitude: 43.824143
      longitude: 125.423497
      name: 健身路径
      detail: 净月校区健身路径
