{"category":[{"path":"all","name":"全部"},{"path":"general","name":"校区"},{"path":"gate","name":"校门"},{"path":"dorm","name":"寝室"},{"path":"school","name":"学院"},{"path":"building","name":"建筑"},{"path":"facility","name":"设施"},{"path":"scenery","name":"风景"},{"path":"store","name":"店铺"},{"path":"sports","name":"运动场地"}],"marker":{"all":[{"id":0,"latitude":43.82738,"longitude":125.4274,"name":"净月校区","detail":"中国吉林省长春市南关区净月大街 2555 号","path":"general/index"},{"id":1,"latitude":43.82853,"longitude":125.43107,"name":"一号门","detail":"净月校区一号门","path":"gate/gate1"},{"id":2,"latitude":43.829067,"longitude":125.427172,"name":"二号门","detail":"净月校区二号门","path":"gate/gate2"},{"id":3,"latitude":43.827783,"longitude":125.423829,"name":"三号门","detail":"净月校区三号门","path":"gate/gate3"},{"id":4,"latitude":43.826572,"longitude":125.420067,"name":"四号门","detail":"净月校区四号门","path":"gate/gate4"},{"id":5,"latitude":43.824837,"longitude":125.417776,"name":"五号门","detail":"净月校区五号门","path":"gate/gate5"},{"id":6,"latitude":43.823548,"longitude":125.420658,"name":"六号门","detail":"净月校区六号门","path":"gate/gate6"},{"id":7,"latitude":43.824705,"longitude":125.421396,"name":"春华公寓","detail":"春华公寓","path":"dorm/spring"},{"id":8,"latitude":43.825123,"longitude":125.422941,"name":"夏华公寓","detail":"夏华公寓","path":"dorm/summer"},{"id":9,"latitude":43.824953,"longitude":125.423887,"name":"秋华公寓","detail":"秋华公寓","path":"dorm/fall"},{"id":10,"latitude":43.824615,"longitude":125.425693,"name":"冬华公寓","detail":"冬华公寓","path":"dorm/winter"},{"id":11,"latitude":43.826905,"longitude":125.422825,"name":"日华公寓","detail":"日华公寓","path":"dorm/sun"},{"id":12,"latitude":43.826839,"longitude":125.421734,"name":"月华公寓","detail":"月华公寓","path":"dorm/moon"},{"id":13,"latitude":43.825953,"longitude":125.422882,"name":"星华公寓","detail":"星华公寓","path":"dorm/star"},{"id":14,"latitude":43.82554,"longitude":125.421097,"name":"光华公寓","detail":"光华公寓","path":"dorm/light"},{"id":15,"latitude":43.825426,"longitude":125.434102,"name":"天华公寓","detail":"天华公寓"},{"id":16,"latitude":43.825307,"longitude":125.433375,"name":"地华公寓","detail":"地华公寓"},{"id":17,"latitude":43.825804,"longitude":125.433429,"name":"人华公寓","detail":"人华公寓"},{"id":18,"latitude":43.827634,"longitude":125.427246,"name":"经济与管理学院","detail":"东北师范大学经济与管理学院","path":"school/economy"},{"id":19,"latitude":43.825095,"longitude":125.426731,"name":"环境学院","detail":"东北师范大学环境学院","path":"school/environment"},{"id":20,"latitude":43.827099,"longitude":125.42591,"name":"政法学院","detail":"东北师范大学政法学院","path":"school/politics"},{"id":21,"latitude":43.82637,"longitude":125.42704,"name":"传媒科学学院","detail":"东北师范大学传媒科学学院","path":"school/media"},{"id":22,"latitude":43.826677,"longitude":125.429272,"name":"音乐学院","detail":"东北师范大学音乐学院","path":"school/music"},{"id":23,"latitude":43.826259,"longitude":125.425503,"name":"外国语学院","detail":"净月校区外国语学院","path":"school/foreign"},{"id":24,"latitude":43.82571,"longitude":125.428207,"name":"美术学院油画系","detail":"东北师范大学美术学院油画系","path":"school/art"},{"id":25,"latitude":43.825349,"longitude":125.429667,"name":"美术学院雕塑系","detail":"东北师范大学美术学院雕塑系","path":"school/art"},{"id":26,"latitude":43.825219,"longitude":125.429004,"name":"美术学院服装教学楼","detail":"东北师范大学美术学院服装教学楼","path":"school/art"},{"id":27,"latitude":43.825714,"longitude":125.426986,"name":"信息科学与技术学院","detail":"东北师范大学信息科学与技术学院","path":"school/ist"},{"id":28,"latitude":43.827559,"longitude":125.42446,"name":"国际汉学院","detail":"东北师范大学国际汉学院","path":"school/international"},{"id":29,"latitude":43.8279558644,"longitude":125.4254311323,"name":"留学生预备学校","detail":"东北师范大学净月校区留学生预备学校"},{"id":30,"latitude":43.826361,"longitude":125.420485,"name":"外国留学生预科部","detail":"东北师范大学净月校区外国留学生预科部"},{"id":31,"latitude":43.826122,"longitude":125.42412,"name":"图书馆","detail":"净月校区图书馆","path":"building/library"},{"id":32,"latitude":43.828469,"longitude":125.426686,"name":"行政楼","detail":"东北师范大学行政楼"},{"id":33,"latitude":43.824796,"longitude":125.426192,"name":"综合教学楼","detail":"净月校区综合教学楼"},{"id":34,"latitude":43.825746,"longitude":125.424458,"name":"保卫处","detail":"净月校区保卫处"},{"id":35,"latitude":43.824582,"longitude":125.42572,"name":"信息化办","detail":"净月校区信息管理与规划办公室"},{"id":36,"latitude":43.825456,"longitude":125.427069,"name":"量子科学中心","detail":"东北师范大学量子科学中心"},{"id":37,"latitude":43.825582,"longitude":125.418001,"name":"辐射技术研究所","detail":"东北师范大学辐射技术研究所"},{"id":38,"latitude":43.824258,"longitude":125.427163,"name":"药物基因和蛋白筛选国家工程实验室","detail":"东北师范大学药物基因和蛋白筛选国家工程实验室"},{"id":39,"latitude":43.824792,"longitude":125.41865,"name":"东北师范大学出版社","detail":"东北师范大学出版社"},{"id":40,"latitude":43.82704,"longitude":125.42385,"name":"一食堂","detail":"净月校区一食堂","path":"facility/dining1"},{"id":41,"latitude":43.825301,"longitude":125.424682,"name":"二食堂","detail":"净月校区二食堂","path":"facility/dining2"},{"id":42,"latitude":43.826294,"longitude":125.420678,"name":"浴池","detail":"净月校区浴池","path":"facility/bath"},{"id":43,"latitude":43.825692,"longitude":125.424139,"name":"卫生所","detail":"净月校区卫生所","path":"facility/hospital"},{"id":44,"latitude":43.824961,"longitude":125.424726,"name":"快递中心","detail":"快递中心","path":"facility/express"},{"id":45,"latitude":43.825197,"longitude":125.425045,"name":"超市","detail":"超市","path":"facility/shop"},{"id":46,"latitude":43.82737,"longitude":125.423382,"name":"ATM","detail":"ATM","path":"facility/atm"},{"id":47,"latitude":43.828808,"longitude":125.427627,"name":"校车候车室","detail":"净月校车候车室"},{"id":48,"latitude":43.827651,"longitude":125.428654,"name":"旭日广场","detail":"净月校区旭日广场"},{"id":49,"latitude":43.827693,"longitude":125.427386,"name":"钟楼","detail":"净月校区钟楼"},{"id":50,"latitude":43.827571,"longitude":125.425648,"name":"樱花林","detail":"净月校区中日友好樱花林"},{"id":51,"latitude":43.828088,"longitude":125.429873,"name":"紫光桥","detail":"净月校区紫光桥"},{"id":52,"latitude":43.826892,"longitude":125.426414,"name":"喷泉","detail":"净月校区喷泉"},{"id":53,"latitude":43.826993,"longitude":125.42667,"name":"鱼池","detail":"净月校区鱼池"},{"id":54,"latitude":43.826917,"longitude":125.425969,"name":"郑德荣雕像","detail":"净月校区郑德荣雕像"},{"id":55,"latitude":43.825096,"longitude":125.424736,"name":"瑞幸咖啡","detail":"二食堂菜鸟驿站旁"},{"id":56,"latitude":43.825081,"longitude":125.424734,"name":"库迪咖啡","detail":"二食堂一楼东南侧"},{"id":57,"latitude":43.825095,"longitude":125.424778,"name":"樂读书庄","detail":"二食堂一楼东南侧"},{"id":58,"latitude":43.825233,"longitude":125.425021,"name":"酷乐冰城","detail":"二食堂超市对面"},{"id":59,"latitude":43.825215,"longitude":125.424984,"name":"甜啦啦","detail":"二食堂书店内"},{"id":60,"latitude":43.82519,"longitude":125.424899,"name":"学子图文复印店","detail":"二食堂超市对面"},{"id":61,"latitude":43.825162,"longitude":125.424811,"name":"晨光文具","detail":"二食堂超市对面"},{"id":62,"latitude":43.825145,"longitude":125.424724,"name":"宏城烘焙坊","detail":"二食堂一楼"},{"id":63,"latitude":43.825145,"longitude":125.424724,"name":"运福铺子 (干果店)","detail":"二食堂一楼"},{"id":64,"latitude":43.825187,"longitude":125.424836,"name":"中国移动 品胜电子产品维修","detail":"二食堂一楼"},{"id":65,"latitude":43.825213,"longitude":125.424919,"name":"新起点百货","detail":"二食堂一楼"},{"id":66,"latitude":43.825236,"longitude":125.424988,"name":"正大茄子饭","detail":"二食堂一楼"},{"id":67,"latitude":43.825252,"longitude":125.425045,"name":"缤果屋","detail":"二食堂一楼 (超市入口附近)"},{"id":68,"latitude":43.825315,"longitude":125.425077,"name":"秀发型","detail":"二食堂超市入口对面"},{"id":69,"latitude":43.825284,"longitude":125.425104,"name":"米多の店","detail":"二食堂超市入口对面"},{"id":70,"latitude":43.827024,"longitude":125.423912,"name":"竖正茶饮","detail":"一食堂一楼"},{"id":71,"latitude":43.826849,"longitude":125.423778,"name":"鲜榨果汁","detail":"一食堂二楼"},{"id":72,"latitude":43.825531,"longitude":125.424621,"name":"菓碰茶","detail":"二食堂三楼西北侧"},{"id":73,"latitude":43.826196,"longitude":125.421112,"name":"季康大药房","detail":"学生浴池正门右侧"},{"id":74,"latitude":43.826136,"longitude":125.420682,"name":"天猫校园鲜果小铺","detail":"浴池正门左侧"},{"id":75,"latitude":43.825084,"longitude":125.42468,"name":"平价水果超市","detail":"二食堂二楼基本餐楼层"},{"id":76,"latitude":43.827058,"longitude":125.42359,"name":"Sandwich","detail":"一食堂二楼售餐亭"},{"id":77,"latitude":43.826169,"longitude":125.420948,"name":"DL 发型设计","detail":"学生浴池正门右侧"},{"id":78,"latitude":43.826056,"longitude":125.420767,"name":"云印社"},{"id":79,"latitude":43.826169,"longitude":125.421143,"name":"糖果洗衣","detail":"浴池后侧"},{"id":80,"latitude":43.824997,"longitude":125.420472,"name":"田径场","detail":"净月校区田径场"},{"id":81,"latitude":43.8241,"longitude":125.421789,"name":"足球场","detail":"净月校区足球场"},{"id":82,"latitude":43.823928,"longitude":125.422647,"name":"篮球场","detail":"净月校区篮球场"},{"id":83,"latitude":43.824501,"longitude":125.424648,"name":"网球场","detail":"净月校区网球场"},{"id":84,"latitude":43.823919306,"longitude":125.4245567322,"name":"排球场","detail":"净月校区排球场"},{"id":85,"latitude":43.82441,"longitude":125.419355,"name":"羽毛球场","detail":"净月校区羽毛球场"},{"id":86,"latitude":43.824143,"longitude":125.423497,"name":"健身路径","detail":"净月校区健身路径"}],"general":[{"id":0,"latitude":43.82738,"longitude":125.4274,"name":"净月校区","detail":"中国吉林省长春市南关区净月大街 2555 号","path":"general/index"}],"gate":[{"id":1,"latitude":43.82853,"longitude":125.43107,"name":"一号门","detail":"净月校区一号门","path":"gate/gate1"},{"id":2,"latitude":43.829067,"longitude":125.427172,"name":"二号门","detail":"净月校区二号门","path":"gate/gate2"},{"id":3,"latitude":43.827783,"longitude":125.423829,"name":"三号门","detail":"净月校区三号门","path":"gate/gate3"},{"id":4,"latitude":43.826572,"longitude":125.420067,"name":"四号门","detail":"净月校区四号门","path":"gate/gate4"},{"id":5,"latitude":43.824837,"longitude":125.417776,"name":"五号门","detail":"净月校区五号门","path":"gate/gate5"},{"id":6,"latitude":43.823548,"longitude":125.420658,"name":"六号门","detail":"净月校区六号门","path":"gate/gate6"}],"dorm":[{"id":7,"latitude":43.824705,"longitude":125.421396,"name":"春华公寓","detail":"春华公寓","path":"dorm/spring"},{"id":8,"latitude":43.825123,"longitude":125.422941,"name":"夏华公寓","detail":"夏华公寓","path":"dorm/summer"},{"id":9,"latitude":43.824953,"longitude":125.423887,"name":"秋华公寓","detail":"秋华公寓","path":"dorm/fall"},{"id":10,"latitude":43.824615,"longitude":125.425693,"name":"冬华公寓","detail":"冬华公寓","path":"dorm/winter"},{"id":11,"latitude":43.826905,"longitude":125.422825,"name":"日华公寓","detail":"日华公寓","path":"dorm/sun"},{"id":12,"latitude":43.826839,"longitude":125.421734,"name":"月华公寓","detail":"月华公寓","path":"dorm/moon"},{"id":13,"latitude":43.825953,"longitude":125.422882,"name":"星华公寓","detail":"星华公寓","path":"dorm/star"},{"id":14,"latitude":43.82554,"longitude":125.421097,"name":"光华公寓","detail":"光华公寓","path":"dorm/light"},{"id":15,"latitude":43.825426,"longitude":125.434102,"name":"天华公寓","detail":"天华公寓"},{"id":16,"latitude":43.825307,"longitude":125.433375,"name":"地华公寓","detail":"地华公寓"},{"id":17,"latitude":43.825804,"longitude":125.433429,"name":"人华公寓","detail":"人华公寓"}],"school":[{"id":18,"latitude":43.827634,"longitude":125.427246,"name":"经济与管理学院","detail":"东北师范大学经济与管理学院","path":"school/economy"},{"id":19,"latitude":43.825095,"longitude":125.426731,"name":"环境学院","detail":"东北师范大学环境学院","path":"school/environment"},{"id":20,"latitude":43.827099,"longitude":125.42591,"name":"政法学院","detail":"东北师范大学政法学院","path":"school/politics"},{"id":21,"latitude":43.82637,"longitude":125.42704,"name":"传媒科学学院","detail":"东北师范大学传媒科学学院","path":"school/media"},{"id":22,"latitude":43.826677,"longitude":125.429272,"name":"音乐学院","detail":"东北师范大学音乐学院","path":"school/music"},{"id":23,"latitude":43.826259,"longitude":125.425503,"name":"外国语学院","detail":"净月校区外国语学院","path":"school/foreign"},{"id":24,"latitude":43.82571,"longitude":125.428207,"name":"美术学院油画系","detail":"东北师范大学美术学院油画系","path":"school/art"},{"id":25,"latitude":43.825349,"longitude":125.429667,"name":"美术学院雕塑系","detail":"东北师范大学美术学院雕塑系","path":"school/art"},{"id":26,"latitude":43.825219,"longitude":125.429004,"name":"美术学院服装教学楼","detail":"东北师范大学美术学院服装教学楼","path":"school/art"},{"id":27,"latitude":43.825714,"longitude":125.426986,"name":"信息科学与技术学院","detail":"东北师范大学信息科学与技术学院","path":"school/ist"},{"id":28,"latitude":43.827559,"longitude":125.42446,"name":"国际汉学院","detail":"东北师范大学国际汉学院","path":"school/international"},{"id":29,"latitude":43.8279558644,"longitude":125.4254311323,"name":"留学生预备学校","detail":"东北师范大学净月校区留学生预备学校"},{"id":30,"latitude":43.826361,"longitude":125.420485,"name":"外国留学生预科部","detail":"东北师范大学净月校区外国留学生预科部"}],"building":[{"id":31,"latitude":43.826122,"longitude":125.42412,"name":"图书馆","detail":"净月校区图书馆","path":"building/library"},{"id":32,"latitude":43.828469,"longitude":125.426686,"name":"行政楼","detail":"东北师范大学行政楼"},{"id":33,"latitude":43.824796,"longitude":125.426192,"name":"综合教学楼","detail":"净月校区综合教学楼"},{"id":34,"latitude":43.825746,"longitude":125.424458,"name":"保卫处","detail":"净月校区保卫处"},{"id":35,"latitude":43.824582,"longitude":125.42572,"name":"信息化办","detail":"净月校区信息管理与规划办公室"},{"id":36,"latitude":43.825456,"longitude":125.427069,"name":"量子科学中心","detail":"东北师范大学量子科学中心"},{"id":37,"latitude":43.825582,"longitude":125.418001,"name":"辐射技术研究所","detail":"东北师范大学辐射技术研究所"},{"id":38,"latitude":43.824258,"longitude":125.427163,"name":"药物基因和蛋白筛选国家工程实验室","detail":"东北师范大学药物基因和蛋白筛选国家工程实验室"},{"id":39,"latitude":43.824792,"longitude":125.41865,"name":"东北师范大学出版社","detail":"东北师范大学出版社"}],"facility":[{"id":40,"latitude":43.82704,"longitude":125.42385,"name":"一食堂","detail":"净月校区一食堂","path":"facility/dining1"},{"id":41,"latitude":43.825301,"longitude":125.424682,"name":"二食堂","detail":"净月校区二食堂","path":"facility/dining2"},{"id":42,"latitude":43.826294,"longitude":125.420678,"name":"浴池","detail":"净月校区浴池","path":"facility/bath"},{"id":43,"latitude":43.825692,"longitude":125.424139,"name":"卫生所","detail":"净月校区卫生所","path":"facility/hospital"},{"id":44,"latitude":43.824961,"longitude":125.424726,"name":"快递中心","detail":"快递中心","path":"facility/express"},{"id":45,"latitude":43.825197,"longitude":125.425045,"name":"超市","detail":"超市","path":"facility/shop"},{"id":46,"latitude":43.82737,"longitude":125.423382,"name":"ATM","detail":"ATM","path":"facility/atm"},{"id":47,"latitude":43.828808,"longitude":125.427627,"name":"校车候车室","detail":"净月校车候车室"}],"scenery":[{"id":48,"latitude":43.827651,"longitude":125.428654,"name":"旭日广场","detail":"净月校区旭日广场"},{"id":49,"latitude":43.827693,"longitude":125.427386,"name":"钟楼","detail":"净月校区钟楼"},{"id":50,"latitude":43.827571,"longitude":125.425648,"name":"樱花林","detail":"净月校区中日友好樱花林"},{"id":51,"latitude":43.828088,"longitude":125.429873,"name":"紫光桥","detail":"净月校区紫光桥"},{"id":52,"latitude":43.826892,"longitude":125.426414,"name":"喷泉","detail":"净月校区喷泉"},{"id":53,"latitude":43.826993,"longitude":125.42667,"name":"鱼池","detail":"净月校区鱼池"},{"id":54,"latitude":43.826917,"longitude":125.425969,"name":"郑德荣雕像","detail":"净月校区郑德荣雕像"}],"store":[{"id":55,"latitude":43.825096,"longitude":125.424736,"name":"瑞幸咖啡","detail":"二食堂菜鸟驿站旁"},{"id":56,"latitude":43.825081,"longitude":125.424734,"name":"库迪咖啡","detail":"二食堂一楼东南侧"},{"id":57,"latitude":43.825095,"longitude":125.424778,"name":"樂读书庄","detail":"二食堂一楼东南侧"},{"id":58,"latitude":43.825233,"longitude":125.425021,"name":"酷乐冰城","detail":"二食堂超市对面"},{"id":59,"latitude":43.825215,"longitude":125.424984,"name":"甜啦啦","detail":"二食堂书店内"},{"id":60,"latitude":43.82519,"longitude":125.424899,"name":"学子图文复印店","detail":"二食堂超市对面"},{"id":61,"latitude":43.825162,"longitude":125.424811,"name":"晨光文具","detail":"二食堂超市对面"},{"id":62,"latitude":43.825145,"longitude":125.424724,"name":"宏城烘焙坊","detail":"二食堂一楼"},{"id":63,"latitude":43.825145,"longitude":125.424724,"name":"运福铺子 (干果店)","detail":"二食堂一楼"},{"id":64,"latitude":43.825187,"longitude":125.424836,"name":"中国移动 品胜电子产品维修","detail":"二食堂一楼"},{"id":65,"latitude":43.825213,"longitude":125.424919,"name":"新起点百货","detail":"二食堂一楼"},{"id":66,"latitude":43.825236,"longitude":125.424988,"name":"正大茄子饭","detail":"二食堂一楼"},{"id":67,"latitude":43.825252,"longitude":125.425045,"name":"缤果屋","detail":"二食堂一楼 (超市入口附近)"},{"id":68,"latitude":43.825315,"longitude":125.425077,"name":"秀发型","detail":"二食堂超市入口对面"},{"id":69,"latitude":43.825284,"longitude":125.425104,"name":"米多の店","detail":"二食堂超市入口对面"},{"id":70,"latitude":43.827024,"longitude":125.423912,"name":"竖正茶饮","detail":"一食堂一楼"},{"id":71,"latitude":43.826849,"longitude":125.423778,"name":"鲜榨果汁","detail":"一食堂二楼"},{"id":72,"latitude":43.825531,"longitude":125.424621,"name":"菓碰茶","detail":"二食堂三楼西北侧"},{"id":73,"latitude":43.826196,"longitude":125.421112,"name":"季康大药房","detail":"学生浴池正门右侧"},{"id":74,"latitude":43.826136,"longitude":125.420682,"name":"天猫校园鲜果小铺","detail":"浴池正门左侧"},{"id":75,"latitude":43.825084,"longitude":125.42468,"name":"平价水果超市","detail":"二食堂二楼基本餐楼层"},{"id":76,"latitude":43.827058,"longitude":125.42359,"name":"Sandwich","detail":"一食堂二楼售餐亭"},{"id":77,"latitude":43.826169,"longitude":125.420948,"name":"DL 发型设计","detail":"学生浴池正门右侧"},{"id":78,"latitude":43.826056,"longitude":125.420767,"name":"云印社"},{"id":79,"latitude":43.826169,"longitude":125.421143,"name":"糖果洗衣","detail":"浴池后侧"}],"sports":[{"id":80,"latitude":43.824997,"longitude":125.420472,"name":"田径场","detail":"净月校区田径场"},{"id":81,"latitude":43.8241,"longitude":125.421789,"name":"足球场","detail":"净月校区足球场"},{"id":82,"latitude":43.823928,"longitude":125.422647,"name":"篮球场","detail":"净月校区篮球场"},{"id":83,"latitude":43.824501,"longitude":125.424648,"name":"网球场","detail":"净月校区网球场"},{"id":84,"latitude":43.823919306,"longitude":125.4245567322,"name":"排球场","detail":"净月校区排球场"},{"id":85,"latitude":43.82441,"longitude":125.419355,"name":"羽毛球场","detail":"净月校区羽毛球场"},{"id":86,"latitude":43.824143,"longitude":125.423497,"name":"健身路径","detail":"净月校区健身路径"}]}}